{"type": "FeatureCollection", "features": [{"type": "Feature", "properties": {"kind": "Farmacia", "name": "Farmacia Pasteur", "hand": 0.0, "dist_grid_m": 247.1, "cauce_id": "volcana"}, "geometry": {"type": "Point", "coordinates": [-75.5730246, 6.2007344]}}, {"type": "Feature", "properties": {"kind": "Hospital", "name": "Unidad Renal", "hand": 0.0, "dist_grid_m": 453.7, "cauce_id": "volcana"}, "geometry": {"type": "Point", "coordinates": [-75.5781105, 6.1948324]}}, {"type": "Feature", "properties": {"kind": "Polic\u00eda", "name": "CAI Guayabal", "hand": 1.2, "dist_grid_m": 907.4, "cauce_id": "volcana"}, "geometry": {"type": "Point", "coordinates": [-75.5873046, 6.2035477]}}, {"type": "Feature", "properties": {"kind": "Farmacia", "name": "Pasteur", "hand": 0.0, "dist_grid_m": 182.4, "cauce_id": "volcana"}, "geometry": {"type": "Point", "coordinates": [-75.5722128, 6.1998211]}}, {"type": "Feature", "properties": {"kind": "Farmacia", "name": "La Relief Drogueria", "hand": 26.57, "dist_grid_m": 1181.3, "cauce_id": "volcana"}, "geometry": {"type": "Point", "coordinates": [-75.5905589, 6.2002135]}}, {"type": "Feature", "properties": {"kind": "Farmacia", "name": "Droger\u00eda Farmasur Medell\u00edn", "hand": 13.84, "dist_grid_m": 1352.2, "cauce_id": "volcana"}, "geometry": {"type": "Point", "coordinates": [-75.5911531, 6.1953704]}}, {"type": "Feature", "properties": {"kind": "Farmacia", "name": "Pharmavillas", "hand": 53.94, "dist_grid_m": 2217.4, "cauce_id": "volcana"}, "geometry": {"type": "Point", "coordinates": [-75.5990897, 6.1943071]}}, {"type": "Feature", "properties": {"kind": "Farmacia", "name": "Farmacenter", "hand": 29.99, "dist_grid_m": 2350.9, "cauce_id": "volcana"}, "geometry": {"type": "Point", "coordinates": [-75.5991635, 6.1911393]}}, {"type": "Feature", "properties": {"kind": "Escuela", "name": "Colegio Sta Maria Del Rosario", "hand": 0.0, "dist_grid_m": 105.3, "cauce_id": "volcana"}, "geometry": {"type": "Point", "coordinates": [-75.564465, 6.1926139]}}, {"type": "Feature", "properties": {"kind": "Jard\u00edn infantil", "name": "Buen comienzo", "hand": 0.0, "dist_grid_m": 658.2, "cauce_id": "volcana"}, "geometry": {"type": "Point", "coordinates": [-75.5841303, 6.2042205]}}, {"type": "Feature", "properties": {"kind": "Cl\u00ednica", "name": "Cl\u00ednica Odontol\u00f3gica Oral L\u00e1ser", "hand": 0.0, "dist_grid_m": 469.7, "cauce_id": "volcana"}, "geometry": {"type": "Point", "coordinates": [-75.5769617, 6.2041283]}}, {"type": "Feature", "properties": {"kind": "Farmacia", "name": "Cruz Verde", "hand": 0.0, "dist_grid_m": 512.9, "cauce_id": "volcana"}, "geometry": {"type": "Point", "coordinates": [-75.5717109, 6.2028175]}}, {"type": "Feature", "properties": {"kind": "Escuela", "name": "Haru no Hinata", "hand": 0.0, "dist_grid_m": 920.6, "cauce_id": "volcana"}, "geometry": {"type": "Point", "coordinates": [-75.5809262, 6.1916663]}}, {"type": "Feature", "properties": {"kind": "Escuela", "name": "Otra sigla Preesc Sol Naciente", "hand": 28.36, "dist_grid_m": 554.4, "cauce_id": "volcana"}, "geometry": {"type": "Point", "coordinates": [-75.566074, 6.200124]}}, {"type": "Feature", "properties": {"kind": "Escuela", "name": "Centro Educativo Js Futuros Brillantes", "hand": 0.0, "dist_grid_m": 637.3, "cauce_id": "volcana"}, "geometry": {"type": "Point", "coordinates": [-75.584161, 6.2039121]}}, {"type": "Feature", "properties": {"kind": "Escuela", "name": "Centro Educativo Angel De Mi Guarda", "hand": 34.54, "dist_grid_m": 2129.3, "cauce_id": "volcana"}, "geometry": {"type": "Point", "coordinates": [-75.5981044, 6.1938564]}}, {"type": "Feature", "properties": {"kind": "Escuela", "name": "Jardin Infantil Girasoles", "hand": 29.61, "dist_grid_m": 1894.0, "cauce_id": "volcana"}, "geometry": {"type": "Point", "coordinates": [-75.5962708, 6.1951079]}}, {"type": "Feature", "properties": {"kind": "Escuela", "name": "Otra sigla Preesc Mis Garabatos", "hand": 0.0, "dist_grid_m": 390.4, "cauce_id": "volcana"}, "geometry": {"type": "Point", "coordinates": [-75.570481, 6.192578]}}, {"type": "Feature", "properties": {"kind": "Escuela", "name": "Guarderia Preesc Cascanueces", "hand": 10.67, "dist_grid_m": 552.8, "cauce_id": "volcana"}, "geometry": {"type": "Point", "coordinates": [-75.565581, 6.199809]}}, {"type": "Feature", "properties": {"kind": "Escuela", "name": "Colegio El Porvenir", "hand": 26.02, "dist_grid_m": 2279.2, "cauce_id": "volcana"}, "geometry": {"type": "Point", "coordinates": [-75.5986661, 6.1916102]}}, {"type": "Feature", "properties": {"kind": "Escuela", "name": "Escuela Arnulfo Florez Zuleta", "hand": 20.61, "dist_grid_m": 1795.5, "cauce_id": "volcana"}, "geometry": {"type": "Point", "coordinates": [-75.5936732, 6.191547]}}, {"type": "Feature", "properties": {"kind": "Escuela", "name": "Institucion Educativa Pedro Estrada", "hand": 7.79, "dist_grid_m": 1397.0, "cauce_id": "volcana"}, "geometry": {"type": "Point", "coordinates": [-75.5888236, 6.1912044]}}, {"type": "Feature", "properties": {"kind": "Escuela", "name": "Escuela Cristo Rey", "hand": 0.0, "dist_grid_m": 653.4, "cauce_id": "volcana"}, "geometry": {"type": "Point", "coordinates": [-75.5836552, 6.2046003]}}, {"type": "Feature", "properties": {"kind": "Escuela", "name": "Escuela La Colina", "hand": 11.11, "dist_grid_m": 1368.2, "cauce_id": "volcana"}, "geometry": {"type": "Point", "coordinates": [-75.5919586, 6.1974138]}}, {"type": "Feature", "properties": {"kind": "Escuela", "name": "Centro Educativo Cent De Educ El Arca", "hand": 44.43, "dist_grid_m": 586.6, "cauce_id": "presidenta"}, "geometry": {"type": "Point", "coordinates": [-75.5663099, 6.2018472]}}, {"type": "Feature", "properties": {"kind": "Escuela", "name": "Escuela Gabriela Mistral", "hand": 7.98, "dist_grid_m": 1064.5, "cauce_id": "volcana"}, "geometry": {"type": "Point", "coordinates": [-75.5894872, 6.19957]}}, {"type": "Feature", "properties": {"kind": "Escuela", "name": "Institucion Educativa Jose Acevedo Y Gomez", "hand": 5.13, "dist_grid_m": 1056.7, "cauce_id": "volcana"}, "geometry": {"type": "Point", "coordinates": [-75.5892116, 6.202111]}}, {"type": "Feature", "properties": {"kind": "Farmacia", "name": "Farmatodo", "hand": 0.0, "dist_grid_m": 946.8, "cauce_id": "volcana"}, "geometry": {"type": "Point", "coordinates": [-75.580019, 6.1907903]}}, {"type": "Feature", "properties": {"kind": "Jard\u00edn infantil", "name": "Huerta el aguacate", "hand": 88.88, "dist_grid_m": 1690.8, "cauce_id": "volcana"}, "geometry": {"type": "Point", "coordinates": [-75.5951503, 6.2009826]}}, {"type": "Feature", "properties": {"kind": "Farmacia", "name": "Farmatodo", "hand": 11.39, "dist_grid_m": 332.0, "cauce_id": "volcana"}, "geometry": {"type": "Point", "coordinates": [-75.5656186, 6.1972549]}}, {"type": "Feature", "properties": {"kind": "Farmacia", "name": "Colsubsidio Droguer\u00eda", "hand": 14.3, "dist_grid_m": 513.8, "cauce_id": "presidenta"}, "geometry": {"type": "Point", "coordinates": [-75.5716182, 6.2031]}}, {"type": "Feature", "properties": {"kind": "Colegio", "name": "Seccion escuela republica de costa rica", "hand": 0.0, "dist_grid_m": 972.6, "cauce_id": "volcana"}, "geometry": {"type": "Point", "coordinates": [-75.5881999, 6.202904]}}, {"type": "Feature", "properties": {"kind": "Cl\u00ednica", "name": "Biomedical Esthetic Center", "hand": 0.0, "dist_grid_m": 399.5, "cauce_id": "volcana"}, "geometry": {"type": "Point", "coordinates": [-75.5765133, 6.2034201]}}, {"type": "Feature", "properties": {"kind": "Escuela", "name": "Colegio San jose del", "hand": 20.07, "dist_grid_m": 277.3, "cauce_id": "presidenta"}, "geometry": {"type": "Point", "coordinates": [-75.5443122, 6.2031929]}}, {"type": "Feature", "properties": {"kind": "Escuela", "name": "Gimnasio Los Cedros", "hand": 28.43, "dist_grid_m": 428.2, "cauce_id": "presidenta"}, "geometry": {"type": "Point", "coordinates": [-75.5562286, 6.2034871]}}, {"type": "Feature", "properties": {"kind": "Escuela", "name": "Escuela Sta Catalina De Sena", "hand": 75.17, "dist_grid_m": 804.1, "cauce_id": "presidenta"}, "geometry": {"type": "Point", "coordinates": [-75.5612148, 6.2001209]}}, {"type": "Feature", "properties": {"kind": "Farmacia", "name": "Cruz Verde", "hand": 61.5, "dist_grid_m": 932.4, "cauce_id": "presidenta"}, "geometry": {"type": "Point", "coordinates": [-75.5569283, 6.1988751]}}, {"type": "Feature", "properties": {"kind": "Farmacia", "name": "Droguer\u00eda Alemana", "hand": 0.0, "dist_grid_m": 932.0, "cauce_id": "volcana"}, "geometry": {"type": "Point", "coordinates": [-75.5572233, 6.1984461]}}, {"type": "Feature", "properties": {"kind": "Farmacia", "name": "Farmatodo", "hand": 66.51, "dist_grid_m": 930.9, "cauce_id": "presidenta"}, "geometry": {"type": "Point", "coordinates": [-75.5567779, 6.1989075]}}, {"type": "Feature", "properties": {"kind": "Farmacia", "name": "Droguer\u00eda Colsubsidio", "hand": 59.0, "dist_grid_m": 946.7, "cauce_id": "presidenta"}, "geometry": {"type": "Point", "coordinates": [-75.5570968, 6.1987268]}}, {"type": "Feature", "properties": {"kind": "Farmacia", "name": "Botica Jun\u00edn", "hand": 13.5, "dist_grid_m": 2104.3, "cauce_id": "presidenta"}, "geometry": {"type": "Point", "coordinates": [-75.5970436, 6.2143036]}}, {"type": "Feature", "properties": {"kind": "Escuela", "name": "La Inmaculada Colegio Femenino", "hand": 18.44, "dist_grid_m": 2218.1, "cauce_id": "presidenta"}, "geometry": {"type": "Point", "coordinates": [-75.5977692, 6.2169125]}}, {"type": "Feature", "properties": {"kind": "Farmacia", "name": "Pasteur", "hand": 0.0, "dist_grid_m": 98.7, "cauce_id": "presidenta"}, "geometry": {"type": "Point", "coordinates": [-75.5709459, 6.2090114]}}, {"type": "Feature", "properties": {"kind": "Farmacia", "name": "Droguer\u00eda El Poblado", "hand": 3.14, "dist_grid_m": 184.1, "cauce_id": "presidenta"}, "geometry": {"type": "Point", "coordinates": [-75.5705545, 6.2098991]}}, {"type": "Feature", "properties": {"kind": "Farmacia", "name": "Pasteur", "hand": 0.54, "dist_grid_m": 15.8, "cauce_id": "presidenta"}, "geometry": {"type": "Point", "coordinates": [-75.5760871, 6.212652]}}, {"type": "Feature", "properties": {"kind": "Farmacia", "name": "Drogas La Economia", "hand": 2.01, "dist_grid_m": 288.7, "cauce_id": "presidenta"}, "geometry": {"type": "Point", "coordinates": [-75.5708252, 6.2108175]}}, {"type": "Feature", "properties": {"kind": "Farmacia", "name": "Pasteur", "hand": 11.57, "dist_grid_m": 243.8, "cauce_id": "presidenta"}, "geometry": {"type": "Point", "coordinates": [-75.567551, 6.209374]}}, {"type": "Feature", "properties": {"kind": "Escuela", "name": "Red Escuela M\u00fasica de Medell\u00edn-Campoamor", "hand": 5.27, "dist_grid_m": 765.1, "cauce_id": "presidenta"}, "geometry": {"type": "Point", "coordinates": [-75.5849321, 6.2131195]}}, {"type": "Feature", "properties": {"kind": "Farmacia", "name": "Droguer\u00eda Alemana", "hand": 11.89, "dist_grid_m": 266.1, "cauce_id": "presidenta"}, "geometry": {"type": "Point", "coordinates": [-75.5675107, 6.2095749]}}, {"type": "Feature", "properties": {"kind": "Escuela", "name": "Academia De Idiomas SMART", "hand": 0.0, "dist_grid_m": 266.1, "cauce_id": "presidenta"}, "geometry": {"type": "Point", "coordinates": [-75.5684562, 6.2099742]}}, {"type": "Feature", "properties": {"kind": "Farmacia", "name": "Farma Fast", "hand": 4.96, "dist_grid_m": 252.3, "cauce_id": "presidenta"}, "geometry": {"type": "Point", "coordinates": [-75.5692294, 6.2102535]}}, {"type": "Feature", "properties": {"kind": "Farmacia", "name": "MundoFarma", "hand": 14.18, "dist_grid_m": 243.3, "cauce_id": "presidenta"}, "geometry": {"type": "Point", "coordinates": [-75.5735061, 6.2118927]}}, {"type": "Feature", "properties": {"kind": "Cl\u00ednica", "name": "Cl\u00ednica de Oncolog\u00eda Astorga", "hand": 0.0, "dist_grid_m": 184.5, "cauce_id": "presidenta"}, "geometry": {"type": "Point", "coordinates": [-75.5731943, 6.2097609]}}, {"type": "Feature", "properties": {"kind": "Farmacia", "name": "Drogeria Espicifica", "hand": 25.2, "dist_grid_m": 434.3, "cauce_id": "presidenta"}, "geometry": {"type": "Point", "coordinates": [-75.5717493, 6.2120866]}}, {"type": "Feature", "properties": {"kind": "Escuela", "name": "Centro Catalina", "hand": 8.82, "dist_grid_m": 110.8, "cauce_id": "presidenta"}, "geometry": {"type": "Point", "coordinates": [-75.5719956, 6.2087517]}}, {"type": "Feature", "properties": {"kind": "Farmacia", "name": "Farmacia Pasteur", "hand": 16.34, "dist_grid_m": 2313.8, "cauce_id": "presidenta"}, "geometry": {"type": "Point", "coordinates": [-75.5985852, 6.2172606]}}, {"type": "Feature", "properties": {"kind": "Farmacia", "name": "SantaFarm", "hand": 26.36, "dist_grid_m": 2376.7, "cauce_id": "presidenta"}, "geometry": {"type": "Point", "coordinates": [-75.5986396, 6.2194149]}}, {"type": "Feature", "properties": {"kind": "Farmacia", "name": "Droguer\u00eda Alemana", "hand": 14.95, "dist_grid_m": 2167.0, "cauce_id": "presidenta"}, "geometry": {"type": "Point", "coordinates": [-75.597544, 6.2152115]}}, {"type": "Feature", "properties": {"kind": "Hospital", "name": "Centro de Fracturas Cefra S.a.", "hand": 7.75, "dist_grid_m": 59.5, "cauce_id": "presidenta"}, "geometry": {"type": "Point", "coordinates": [-75.5763173, 6.2102283]}}, {"type": "Feature", "properties": {"kind": "Escuela", "name": "Blink Salsa", "hand": 22.66, "dist_grid_m": 441.2, "cauce_id": "presidenta"}, "geometry": {"type": "Point", "coordinates": [-75.5718272, 6.2135649]}}, {"type": "Feature", "properties": {"kind": "Farmacia", "name": "Ivanagro", "hand": 0.59, "dist_grid_m": 545.0, "cauce_id": "presidenta"}, "geometry": {"type": "Point", "coordinates": [-75.5701475, 6.2131453]}}, {"type": "Feature", "properties": {"kind": "Farmacia", "name": "Ivanagro", "hand": 29.68, "dist_grid_m": 644.0, "cauce_id": "presidenta"}, "geometry": {"type": "Point", "coordinates": [-75.5702348, 6.2146104]}}, {"type": "Feature", "properties": {"kind": "Cl\u00ednica", "name": "CediMed", "hand": 33.77, "dist_grid_m": 102.0, "cauce_id": "presidenta"}, "geometry": {"type": "Point", "coordinates": [-75.570941, 6.2068143]}}, {"type": "Feature", "properties": {"kind": "Cl\u00ednica", "name": "IQ InterQuir\u00f3fanos", "hand": 5.68, "dist_grid_m": 155.7, "cauce_id": "presidenta"}, "geometry": {"type": "Point", "coordinates": [-75.5701608, 6.2064259]}}, {"type": "Feature", "properties": {"kind": "Farmacia", "name": "La Rebaja Plus Minimarket Drogueria", "hand": 0.0, "dist_grid_m": 300.7, "cauce_id": "presidenta"}, "geometry": {"type": "Point", "coordinates": [-75.5709986, 6.2108962]}}, {"type": "Feature", "properties": {"kind": "Escuela", "name": "Elefun Spanish School", "hand": 23.75, "dist_grid_m": 341.6, "cauce_id": "presidenta"}, "geometry": {"type": "Point", "coordinates": [-75.5727058, 6.2133549]}}, {"type": "Feature", "properties": {"kind": "Farmacia", "name": "Full Medics", "hand": 18.48, "dist_grid_m": 278.0, "cauce_id": "presidenta"}, "geometry": {"type": "Point", "coordinates": [-75.5733977, 6.2136131]}}, {"type": "Feature", "properties": {"kind": "Escuela", "name": "Centro Educativo Semillas Del Futuro", "hand": 6.73, "dist_grid_m": 1774.1, "cauce_id": "presidenta"}, "geometry": {"type": "Point", "coordinates": [-75.5932919, 6.218227]}}, {"type": "Feature", "properties": {"kind": "Escuela", "name": "Otra sigla Preesc Poldi", "hand": 6.11, "dist_grid_m": 1183.2, "cauce_id": "presidenta"}, "geometry": {"type": "Point", "coordinates": [-75.5884289, 6.2108077]}}, {"type": "Feature", "properties": {"kind": "Escuela", "name": "Centro Educativo Cent Educ Ventana Magica", "hand": 0.0, "dist_grid_m": 1004.2, "cauce_id": "volcana"}, "geometry": {"type": "Point", "coordinates": [-75.5868823, 6.2058343]}}, {"type": "Feature", "properties": {"kind": "Escuela", "name": "Otra sigla Jard Rondas Infantiles", "hand": 6.91, "dist_grid_m": 1842.6, "cauce_id": "presidenta"}, "geometry": {"type": "Point", "coordinates": [-75.593769, 6.2187538]}}, {"type": "Feature", "properties": {"kind": "Escuela", "name": "Guarderia La Motica", "hand": 17.92, "dist_grid_m": 2357.7, "cauce_id": "presidenta"}, "geometry": {"type": "Point", "coordinates": [-75.5992558, 6.2154572]}}, {"type": "Feature", "properties": {"kind": "Escuela", "name": "Guarderia Y Prees Palotin Col Los Fundadores", "hand": 1.55, "dist_grid_m": 859.2, "cauce_id": "presidenta"}, "geometry": {"type": "Point", "coordinates": [-75.5857191, 6.2143107]}}, {"type": "Feature", "properties": {"kind": "Escuela", "name": "Gimnasio Educ El Tesoro", "hand": 28.8, "dist_grid_m": 566.6, "cauce_id": "presidenta"}, "geometry": {"type": "Point", "coordinates": [-75.5651687, 6.2128206]}}, {"type": "Feature", "properties": {"kind": "Escuela", "name": "Jardin Infantil Piolin", "hand": 0.0, "dist_grid_m": 523.3, "cauce_id": "presidenta"}, "geometry": {"type": "Point", "coordinates": [-75.5672726, 6.2120185]}}, {"type": "Feature", "properties": {"kind": "Escuela", "name": "Otra sigla Secci\u00f3n Escuela Las Playas", "hand": 17.67, "dist_grid_m": 2365.0, "cauce_id": "presidenta"}, "geometry": {"type": "Point", "coordinates": [-75.5983668, 6.2199294]}}, {"type": "Feature", "properties": {"kind": "Escuela", "name": "Escuela Guillermo Echavarria Misas", "hand": 0.0, "dist_grid_m": 300.9, "cauce_id": "presidenta"}, "geometry": {"type": "Point", "coordinates": [-75.5714181, 6.210781]}}, {"type": "Feature", "properties": {"kind": "Farmacia", "name": "La Rebaja", "hand": 17.02, "dist_grid_m": 2320.5, "cauce_id": "presidenta"}, "geometry": {"type": "Point", "coordinates": [-75.5986696, 6.2171439]}}, {"type": "Feature", "properties": {"kind": "Farmacia", "name": "Pasteur", "hand": 0.0, "dist_grid_m": 1114.6, "cauce_id": "presidenta"}, "geometry": {"type": "Point", "coordinates": [-75.5866695, 6.2184451]}}, {"type": "Feature", "properties": {"kind": "Escuela", "name": "Nueva Lengua Medellin", "hand": 0.0, "dist_grid_m": 556.5, "cauce_id": "presidenta"}, "geometry": {"type": "Point", "coordinates": [-75.561299, 6.2126488]}}, {"type": "Feature", "properties": {"kind": "Universidad", "name": "Colegiatura Colombiana", "hand": 3.08, "dist_grid_m": 306.0, "cauce_id": "presidenta"}, "geometry": {"type": "Point", "coordinates": [-75.5461222, 6.2088347]}}, {"type": "Feature", "properties": {"kind": "Jard\u00edn infantil", "name": "La Arboleda", "hand": 0.0, "dist_grid_m": 88.1, "cauce_id": "presidenta"}, "geometry": {"type": "Point", "coordinates": [-75.5596879, 6.2069745]}}, {"type": "Feature", "properties": {"kind": "Escuela", "name": "Jardin Infantil El Recreo De Los Ni\u00f1os", "hand": 47.64, "dist_grid_m": 1024.5, "cauce_id": "presidenta"}, "geometry": {"type": "Point", "coordinates": [-75.5618391, 6.2168384]}}, {"type": "Feature", "properties": {"kind": "Escuela", "name": "Colegio Ntra Sra De La Providencia", "hand": 8.53, "dist_grid_m": 84.6, "cauce_id": "presidenta"}, "geometry": {"type": "Point", "coordinates": [-75.5490565, 6.2057444]}}, {"type": "Feature", "properties": {"kind": "Escuela", "name": "Colegio Latino", "hand": 8.66, "dist_grid_m": 698.1, "cauce_id": "presidenta"}, "geometry": {"type": "Point", "coordinates": [-75.5457744, 6.212386]}}, {"type": "Feature", "properties": {"kind": "Escuela", "name": "Colegio Madre Antonia Cerini", "hand": 2.1, "dist_grid_m": 29.2, "cauce_id": "presidenta"}, "geometry": {"type": "Point", "coordinates": [-75.5633753, 6.206892]}}, {"type": "Feature", "properties": {"kind": "Jard\u00edn infantil", "name": "Preescolar Hola Beb\u00e9", "hand": 0.0, "dist_grid_m": 419.5, "cauce_id": "presidenta"}, "geometry": {"type": "Point", "coordinates": [-75.559325, 6.211627]}}, {"type": "Feature", "properties": {"kind": "Escuela", "name": "Institucion Educativa Loma Hermosa", "hand": 5.92, "dist_grid_m": 43.1, "cauce_id": "presidenta"}, "geometry": {"type": "Point", "coordinates": [-75.5589308, 6.2073332]}}, {"type": "Feature", "properties": {"kind": "Jard\u00edn infantil", "name": "Descubriendo Maravillas", "hand": 0.0, "dist_grid_m": 493.6, "cauce_id": "presidenta"}, "geometry": {"type": "Point", "coordinates": [-75.5619416, 6.212004]}}, {"type": "Feature", "properties": {"kind": "Cl\u00ednica", "name": "Cl\u00ednica Oftalmol\u00f3gica de Medell\u00edn", "hand": 0.0, "dist_grid_m": 187.1, "cauce_id": "presidenta"}, "geometry": {"type": "Point", "coordinates": [-75.5600676, 6.2060078]}}, {"type": "Feature", "properties": {"kind": "Farmacia", "name": "Droguer\u00eda Alemana", "hand": 10.53, "dist_grid_m": 121.9, "cauce_id": "presidenta"}, "geometry": {"type": "Point", "coordinates": [-75.5632628, 6.2084964]}}, {"type": "Feature", "properties": {"kind": "Universidad", "name": "Universidad EAFIT", "hand": 1.81, "dist_grid_m": 40.3, "cauce_id": "volcana"}, "geometry": {"type": "Point", "coordinates": [-75.578693742, 6.19970228]}}, {"type": "Feature", "properties": {"kind": "Escuela", "name": "INEM Jos\u00e9 F\u00e9lix de Restrepo", "hand": 0.0, "dist_grid_m": 259.6, "cauce_id": "presidenta"}, "geometry": {"type": "Point", "coordinates": [-75.5774257111111, 6.207695866666667]}}, {"type": "Feature", "properties": {"kind": "Jard\u00edn infantil", "name": "Guarderia El Arca", "hand": 46.12, "dist_grid_m": 573.1, "cauce_id": "presidenta"}, "geometry": {"type": "Point", "coordinates": [-75.56633047142857, 6.201966928571429]}}, {"type": "Feature", "properties": {"kind": "Escuela", "name": "Gimnasio Los Pinares", "hand": 0.0, "dist_grid_m": 589.7, "cauce_id": "volcana"}, "geometry": {"type": "Point", "coordinates": [-75.57123196111111, 6.190667016666667]}}, {"type": "Feature", "properties": {"kind": "Cl\u00ednica", "name": "Clinica Sanitas", "hand": 19.53, "dist_grid_m": 853.5, "cauce_id": "volcana"}, "geometry": {"type": "Point", "coordinates": [-75.57778807999999, 6.19079844]}}, {"type": "Feature", "properties": {"kind": "Escuela", "name": "Colegio Cristo Rey", "hand": 0.0, "dist_grid_m": 607.1, "cauce_id": "volcana"}, "geometry": {"type": "Point", "coordinates": [-75.58163001666667, 6.20526315]}}, {"type": "Feature", "properties": {"kind": "Escuela", "name": "IE Jos\u00e9 Acevedo y Gom\u00e9z", "hand": 13.52, "dist_grid_m": 1158.6, "cauce_id": "volcana"}, "geometry": {"type": "Point", "coordinates": [-75.59006246666667, 6.2025287166666665]}}, {"type": "Feature", "properties": {"kind": "Hospital", "name": "Cl\u00ednica Las Vegas", "hand": 0.0, "dist_grid_m": 388.9, "cauce_id": "volcana"}, "geometry": {"type": "Point", "coordinates": [-75.57671708333334, 6.2033606500000005]}}, {"type": "Feature", "properties": {"kind": "Hospital", "name": "Quirustetic", "hand": 0.0, "dist_grid_m": 408.4, "cauce_id": "volcana"}, "geometry": {"type": "Point", "coordinates": [-75.57756405714285, 6.1949849285714285]}}, {"type": "Feature", "properties": {"kind": "Farmacia", "name": "Farmatodo", "hand": 0.0, "dist_grid_m": 92.9, "cauce_id": "volcana"}, "geometry": {"type": "Point", "coordinates": [-75.5730883, 6.199271952631579]}}, {"type": "Feature", "properties": {"kind": "Cl\u00ednica", "name": "NOVA Cirug\u00eda Pl\u00e1stica", "hand": 0.0, "dist_grid_m": 317.3, "cauce_id": "volcana"}, "geometry": {"type": "Point", "coordinates": [-75.57883194285715, 6.196987385714286]}}, {"type": "Feature", "properties": {"kind": "Cl\u00ednica", "name": "Torre M\u00e9dica Salud Vegas", "hand": 0.0, "dist_grid_m": 462.1, "cauce_id": "volcana"}, "geometry": {"type": "Point", "coordinates": [-75.57665488571429, 6.204019671428571]}}, {"type": "Feature", "properties": {"kind": "Escuela", "name": "Colegio San Jos\u00e9 de las Vegas", "hand": 0.0, "dist_grid_m": 57.7, "cauce_id": "volcana"}, "geometry": {"type": "Point", "coordinates": [-75.5769733111111, 6.198726972222222]}}, {"type": "Feature", "properties": {"kind": "Universidad", "name": "Universidad EAFIT", "hand": 4.91, "dist_grid_m": 433.4, "cauce_id": "volcana"}, "geometry": {"type": "Point", "coordinates": [-75.58027194285715, 6.1962045]}}, {"type": "Feature", "properties": {"kind": "Universidad", "name": "Universidad EAFIT", "hand": 0.0, "dist_grid_m": 412.9, "cauce_id": "volcana"}, "geometry": {"type": "Point", "coordinates": [-75.57952745714286, 6.196360171428572]}}, {"type": "Feature", "properties": {"kind": "Universidad", "name": "Universidad EAFIT", "hand": 1.54, "dist_grid_m": 444.6, "cauce_id": "volcana"}, "geometry": {"type": "Point", "coordinates": [-75.57981846, 6.196080139999999]}}, {"type": "Feature", "properties": {"kind": "Farmacia", "name": "Farmatodo", "hand": 5.25, "dist_grid_m": 592.6, "cauce_id": "volcana"}, "geometry": {"type": "Point", "coordinates": [-75.56808423999999, 6.20151338]}}, {"type": "Feature", "properties": {"kind": "Escuela", "name": "colegio sanjose de las vegas", "hand": 0.0, "dist_grid_m": 35.3, "cauce_id": "volcana"}, "geometry": {"type": "Point", "coordinates": [-75.57622268333334, 6.198159100000001]}}, {"type": "Feature", "properties": {"kind": "Hospital", "name": "Cl\u00ednica El Rosario", "hand": 0.0, "dist_grid_m": 396.5, "cauce_id": "volcana"}, "geometry": {"type": "Point", "coordinates": [-75.55726245789474, 6.1934695]}}, {"type": "Feature", "properties": {"kind": "Escuela", "name": "Marymount School - Medell\u00edn", "hand": 36.68, "dist_grid_m": 181.7, "cauce_id": "presidenta"}, "geometry": {"type": "Point", "coordinates": [-75.55591127931034, 6.205706262068966]}}, {"type": "Feature", "properties": {"kind": "Colegio", "name": "Colegio San Jos\u00e9 de la Salle", "hand": 0.0, "dist_grid_m": 291.7, "cauce_id": "presidenta"}, "geometry": {"type": "Point", "coordinates": [-75.54680137173914, 6.203216591304347]}}, {"type": "Feature", "properties": {"kind": "Colegio", "name": "Polit\u00e9cnico Jaime Isaza Cadavid", "hand": 2.44, "dist_grid_m": 161.9, "cauce_id": "presidenta"}, "geometry": {"type": "Point", "coordinates": [-75.57724596666667, 6.211296691666667]}}, {"type": "Feature", "properties": {"kind": "Escuela", "name": "La Presentaci\u00f3n (Campo Amor)", "hand": 0.77, "dist_grid_m": 773.0, "cauce_id": "presidenta"}, "geometry": {"type": "Point", "coordinates": [-75.5849789, 6.2138984375]}}, {"type": "Feature", "properties": {"kind": "Bomberos", "name": "Bomberos Guayabal", "hand": 0.0, "dist_grid_m": 994.3, "cauce_id": "presidenta"}, "geometry": {"type": "Point", "coordinates": [-75.58683322222223, 6.215062666666666]}}, {"type": "Feature", "properties": {"kind": "Escuela", "name": "Instituci\u00f3n Educativa La Salle de Campoamor", "hand": 2.62, "dist_grid_m": 1089.0, "cauce_id": "presidenta"}, "geometry": {"type": "Point", "coordinates": [-75.5878397, 6.21252575]}}, {"type": "Feature", "properties": {"kind": "Hospital", "name": "Santa Ana Hospital Infantil", "hand": 26.31, "dist_grid_m": 541.6, "cauce_id": "presidenta"}, "geometry": {"type": "Point", "coordinates": [-75.57155477142858, 6.215254878571429]}}, {"type": "Feature", "properties": {"kind": "Escuela", "name": "Colegio Palermo de San Jos\u00e9", "hand": 6.41, "dist_grid_m": 109.0, "cauce_id": "presidenta"}, "geometry": {"type": "Point", "coordinates": [-75.56939065454546, 6.2087705]}}, {"type": "Feature", "properties": {"kind": "Cl\u00ednica", "name": "Sofina Clinic", "hand": 3.05, "dist_grid_m": 297.8, "cauce_id": "presidenta"}, "geometry": {"type": "Point", "coordinates": [-75.57293755999999, 6.2107695]}}, {"type": "Feature", "properties": {"kind": "Cl\u00ednica", "name": "Edifico Medical", "hand": 5.94, "dist_grid_m": 159.6, "cauce_id": "presidenta"}, "geometry": {"type": "Point", "coordinates": [-75.57008856, 6.20637864]}}, {"type": "Feature", "properties": {"kind": "Cl\u00ednica", "name": "INTERMEDICA Centro de Especialistas", "hand": 17.75, "dist_grid_m": 180.1, "cauce_id": "presidenta"}, "geometry": {"type": "Point", "coordinates": [-75.57042452222223, 6.206238211111111]}}, {"type": "Feature", "properties": {"kind": "Cl\u00ednica", "name": "Consultorios Cl\u00ednica Medell\u00edn Torre Fundadores", "hand": 33.77, "dist_grid_m": 102.5, "cauce_id": "presidenta"}, "geometry": {"type": "Point", "coordinates": [-75.57099114285714, 6.206803735714286]}}, {"type": "Feature", "properties": {"kind": "Cl\u00ednica", "name": "INTERMEDICA Centro de Especialistas", "hand": 29.57, "dist_grid_m": 127.7, "cauce_id": "presidenta"}, "geometry": {"type": "Point", "coordinates": [-75.57113912, 6.206567300000001]}}, {"type": "Feature", "properties": {"kind": "Cl\u00ednica", "name": "Laboratorio Cl\u00ednico Hematol\u00f3gico", "hand": 0.0, "dist_grid_m": 160.4, "cauce_id": "presidenta"}, "geometry": {"type": "Point", "coordinates": [-75.57316796, 6.2065233200000005]}}, {"type": "Feature", "properties": {"kind": "Cl\u00ednica", "name": "Umma Especialistas", "hand": 0.0, "dist_grid_m": 59.0, "cauce_id": "presidenta"}, "geometry": {"type": "Point", "coordinates": [-75.5747728, 6.2088524199999995]}}, {"type": "Feature", "properties": {"kind": "Cl\u00ednica", "name": "Torre M\u00e9dica Las Am\u00e9ricas", "hand": 20.01, "dist_grid_m": 1966.9, "cauce_id": "presidenta"}, "geometry": {"type": "Point", "coordinates": [-75.59581276, 6.21395264]}}, {"type": "Feature", "properties": {"kind": "Colegio", "name": "Instituci\u00f3n Educativa Juan Mar\u00eda C\u00e9spedes", "hand": 15.43, "dist_grid_m": 2168.7, "cauce_id": "presidenta"}, "geometry": {"type": "Point", "coordinates": [-75.59667781666667, 6.219372216666667]}}, {"type": "Feature", "properties": {"kind": "Cl\u00ednica", "name": "inSer", "hand": 23.08, "dist_grid_m": 645.9, "cauce_id": "presidenta"}, "geometry": {"type": "Point", "coordinates": [-75.56720314545454, 6.213222045454546]}}, {"type": "Feature", "properties": {"kind": "Cl\u00ednica", "name": "Cl\u00ednica Las Am\u00e9ricas Promotora", "hand": 19.2, "dist_grid_m": 1855.4, "cauce_id": "presidenta"}, "geometry": {"type": "Point", "coordinates": [-75.59480537272727, 6.213866863636364]}}, {"type": "Feature", "properties": {"kind": "Cl\u00ednica", "name": "Cl\u00ednica Aurora", "hand": 0.0, "dist_grid_m": 36.7, "cauce_id": "presidenta"}, "geometry": {"type": "Point", "coordinates": [-75.5751688, 6.20940094]}}, {"type": "Feature", "properties": {"kind": "Cl\u00ednica", "name": "Cl\u00ednica Aurora Sede 2", "hand": 0.0, "dist_grid_m": 34.3, "cauce_id": "presidenta"}, "geometry": {"type": "Point", "coordinates": [-75.57509744000001, 6.20909958]}}, {"type": "Feature", "properties": {"kind": "Colegio", "name": "Seminario", "hand": 3.5, "dist_grid_m": 581.4, "cauce_id": "presidenta"}, "geometry": {"type": "Point", "coordinates": [-75.54595289230768, 6.211350076923077]}}, {"type": "Feature", "properties": {"kind": "Cl\u00ednica", "name": "Balance", "hand": 0.0, "dist_grid_m": 433.3, "cauce_id": "presidenta"}, "geometry": {"type": "Point", "coordinates": [-75.55988464285714, 6.211694799999999]}}, {"type": "Feature", "properties": {"kind": "Centro comercial", "name": "Centro Comercial Oviedo", "id": 152942893, "hand": 4.39, "dist_grid_m": 69.3, "cauce_id": "volcana"}, "geometry": {"type": "Point", "coordinates": [-75.5750493, 6.1990097]}}, {"type": "Feature", "properties": {"kind": "Parque", "name": "Parque Natural Oviedo", "id": 559528253, "hand": 1.31, "dist_grid_m": 21.2, "cauce_id": "volcana"}, "geometry": {"type": "Point", "coordinates": [-75.5747533, 6.198235]}}, {"type": "Feature", "properties": {"kind": "Parque", "name": "Parque La Volcana \u00b7 Laboratorio Vivo Urbam", "id": 9000001, "hand": 0.0, "dist_grid_m": 12.9, "cauce_id": "volcana"}, "geometry": {"type": "Point", "coordinates": [-75.57875, 6.20016]}}]}