{"type": "FeatureCollection", "features": [{"type": "Feature", "properties": {"kind": "Farmacia", "name": "Farmacia Pasteur", "hand": 1.7, "dist_grid_m": 452.6}, "geometry": {"type": "Point", "coordinates": [-75.5730246, 6.2007344]}}, {"type": "Feature", "properties": {"kind": "Hospital", "name": "Unidad Renal", "hand": 0.0, "dist_grid_m": 1144.3}, "geometry": {"type": "Point", "coordinates": [-75.5781105, 6.1948324]}}, {"type": "Feature", "properties": {"kind": "Polic\u00eda", "name": "CAI Guayabal", "hand": 0.0, "dist_grid_m": 1100.2}, "geometry": {"type": "Point", "coordinates": [-75.5873046, 6.2035477]}}, {"type": "Feature", "properties": {"kind": "Farmacia", "name": "Pasteur", "hand": 9.79, "dist_grid_m": 554.1}, "geometry": {"type": "Point", "coordinates": [-75.5722128, 6.1998211]}}, {"type": "Feature", "properties": {"kind": "Farmacia", "name": "La Relief Drogueria", "hand": 0.0, "dist_grid_m": 1579.8}, "geometry": {"type": "Point", "coordinates": [-75.5905589, 6.2002135]}}, {"type": "Feature", "properties": {"kind": "Farmacia", "name": "Droger\u00eda Farmasur Medell\u00edn", "hand": 0.0, "dist_grid_m": 1927.0}, "geometry": {"type": "Point", "coordinates": [-75.5911531, 6.1953704]}}, {"type": "Feature", "properties": {"kind": "Farmacia", "name": "Pharmavillas", "hand": 0.0, "dist_grid_m": 2718.6}, "geometry": {"type": "Point", "coordinates": [-75.5990897, 6.1943071]}}, {"type": "Feature", "properties": {"kind": "Farmacia", "name": "Farmacenter", "hand": 0.0, "dist_grid_m": 2914.9}, "geometry": {"type": "Point", "coordinates": [-75.5991635, 6.1911393]}}, {"type": "Feature", "properties": {"kind": "Escuela", "name": "Colegio Sta Maria Del Rosario", "hand": 2.34, "dist_grid_m": 1283.7}, "geometry": {"type": "Point", "coordinates": [-75.564465, 6.1926139]}}, {"type": "Feature", "properties": {"kind": "Jard\u00edn infantil", "name": "Buen comienzo", "hand": 0.0, "dist_grid_m": 750.9}, "geometry": {"type": "Point", "coordinates": [-75.5841303, 6.2042205]}}, {"type": "Feature", "properties": {"kind": "Farmacia", "name": "", "hand": 0.0, "dist_grid_m": 774.2}, "geometry": {"type": "Point", "coordinates": [-75.5841588, 6.2037604]}}, {"type": "Feature", "properties": {"kind": "Cl\u00ednica", "name": "Cl\u00ednica Odontol\u00f3gica Oral L\u00e1ser", "hand": 0.0, "dist_grid_m": 158.5}, "geometry": {"type": "Point", "coordinates": [-75.5769617, 6.2041283]}}, {"type": "Feature", "properties": {"kind": "Farmacia", "name": "Cruz Verde", "hand": 14.7, "dist_grid_m": 221.4}, "geometry": {"type": "Point", "coordinates": [-75.5717109, 6.2028175]}}, {"type": "Feature", "properties": {"kind": "Escuela", "name": "Haru no Hinata", "hand": 0.0, "dist_grid_m": 1576.9}, "geometry": {"type": "Point", "coordinates": [-75.5809262, 6.1916663]}}, {"type": "Feature", "properties": {"kind": "Escuela", "name": "Otra sigla Preesc Sol Naciente", "hand": 30.42, "dist_grid_m": 436.4}, "geometry": {"type": "Point", "coordinates": [-75.566074, 6.200124]}}, {"type": "Feature", "properties": {"kind": "Escuela", "name": "Centro Educativo Js Futuros Brillantes", "hand": 0.0, "dist_grid_m": 768.2}, "geometry": {"type": "Point", "coordinates": [-75.584161, 6.2039121]}}, {"type": "Feature", "properties": {"kind": "Escuela", "name": "Centro Educativo Angel De Mi Guarda", "hand": 0.0, "dist_grid_m": 2650.5}, "geometry": {"type": "Point", "coordinates": [-75.5981044, 6.1938564]}}, {"type": "Feature", "properties": {"kind": "Escuela", "name": "Jardin Infantil Girasoles", "hand": 0.0, "dist_grid_m": 2405.4}, "geometry": {"type": "Point", "coordinates": [-75.5962708, 6.1951079]}}, {"type": "Feature", "properties": {"kind": "Escuela", "name": "Otra sigla Preesc Mis Garabatos", "hand": 19.25, "dist_grid_m": 1288.6}, "geometry": {"type": "Point", "coordinates": [-75.570481, 6.192578]}}, {"type": "Feature", "properties": {"kind": "Escuela", "name": "Guarderia Preesc Cascanueces", "hand": 31.46, "dist_grid_m": 487.1}, "geometry": {"type": "Point", "coordinates": [-75.565581, 6.199809]}}, {"type": "Feature", "properties": {"kind": "Escuela", "name": "Colegio El Porvenir", "hand": 0.0, "dist_grid_m": 2839.9}, "geometry": {"type": "Point", "coordinates": [-75.5986661, 6.1916102]}}, {"type": "Feature", "properties": {"kind": "Escuela", "name": "Escuela Arnulfo Florez Zuleta", "hand": 0.0, "dist_grid_m": 2416.0}, "geometry": {"type": "Point", "coordinates": [-75.5936732, 6.191547]}}, {"type": "Feature", "properties": {"kind": "Escuela", "name": "Institucion Educativa Pedro Estrada", "hand": 0.0, "dist_grid_m": 2087.9}, "geometry": {"type": "Point", "coordinates": [-75.5888236, 6.1912044]}}, {"type": "Feature", "properties": {"kind": "Escuela", "name": "Escuela Cristo Rey", "hand": 0.0, "dist_grid_m": 685.0}, "geometry": {"type": "Point", "coordinates": [-75.5836552, 6.2046003]}}, {"type": "Feature", "properties": {"kind": "Escuela", "name": "Escuela La Colina", "hand": 0.0, "dist_grid_m": 1866.1}, "geometry": {"type": "Point", "coordinates": [-75.5919586, 6.1974138]}}, {"type": "Feature", "properties": {"kind": "Escuela", "name": "Centro Educativo Cent De Educ El Arca", "hand": 30.42, "dist_grid_m": 248.9}, "geometry": {"type": "Point", "coordinates": [-75.5663099, 6.2018472]}}, {"type": "Feature", "properties": {"kind": "Escuela", "name": "Escuela Gabriela Mistral", "hand": 0.0, "dist_grid_m": 1508.8}, "geometry": {"type": "Point", "coordinates": [-75.5894872, 6.19957]}}, {"type": "Feature", "properties": {"kind": "Escuela", "name": "Institucion Educativa Jose Acevedo Y Gomez", "hand": 0.0, "dist_grid_m": 1357.3}, "geometry": {"type": "Point", "coordinates": [-75.5892116, 6.202111]}}, {"type": "Feature", "properties": {"kind": "Farmacia", "name": "Farmatodo", "hand": 0.0, "dist_grid_m": 1634.0}, "geometry": {"type": "Point", "coordinates": [-75.580019, 6.1907903]}}, {"type": "Feature", "properties": {"kind": "Jard\u00edn infantil", "name": "Huerta el aguacate", "hand": 6.87, "dist_grid_m": 1993.5}, "geometry": {"type": "Point", "coordinates": [-75.5951503, 6.2009826]}}, {"type": "Feature", "properties": {"kind": "Farmacia", "name": "Farmatodo", "hand": 30.42, "dist_grid_m": 756.4}, "geometry": {"type": "Point", "coordinates": [-75.5656186, 6.1972549]}}, {"type": "Feature", "properties": {"kind": "Farmacia", "name": "Colsubsidio Droguer\u00eda", "hand": 14.7, "dist_grid_m": 189.8}, "geometry": {"type": "Point", "coordinates": [-75.5716182, 6.2031]}}, {"type": "Feature", "properties": {"kind": "Colegio", "name": "Seccion escuela republica de costa rica", "hand": 0.0, "dist_grid_m": 1219.2}, "geometry": {"type": "Point", "coordinates": [-75.5881999, 6.202904]}}, {"type": "Feature", "properties": {"kind": "Cl\u00ednica", "name": "Biomedical Esthetic Center", "hand": 0.0, "dist_grid_m": 190.3}, "geometry": {"type": "Point", "coordinates": [-75.5765133, 6.2034201]}}, {"type": "Feature", "properties": {"kind": "Escuela", "name": "Colegio San jose del", "hand": 21.1, "dist_grid_m": 13.0}, "geometry": {"type": "Point", "coordinates": [-75.5443122, 6.2031929]}}, {"type": "Feature", "properties": {"kind": "Escuela", "name": "Gimnasio Los Cedros", "hand": 24.14, "dist_grid_m": 112.9}, "geometry": {"type": "Point", "coordinates": [-75.5562286, 6.2034871]}}, {"type": "Feature", "properties": {"kind": "Escuela", "name": "Escuela Sta Catalina De Sena", "hand": 32.46, "dist_grid_m": 461.3}, "geometry": {"type": "Point", "coordinates": [-75.5612148, 6.2001209]}}, {"type": "Feature", "properties": {"kind": "Farmacia", "name": "Cruz Verde", "hand": 29.02, "dist_grid_m": 590.6}, "geometry": {"type": "Point", "coordinates": [-75.5569283, 6.1988751]}}, {"type": "Feature", "properties": {"kind": "Farmacia", "name": "Droguer\u00eda Alemana", "hand": 29.02, "dist_grid_m": 636.4}, "geometry": {"type": "Point", "coordinates": [-75.5572233, 6.1984461]}}, {"type": "Feature", "properties": {"kind": "Farmacia", "name": "Farmatodo", "hand": 29.02, "dist_grid_m": 588.6}, "geometry": {"type": "Point", "coordinates": [-75.5567779, 6.1989075]}}, {"type": "Feature", "properties": {"kind": "Farmacia", "name": "Droguer\u00eda Colsubsidio", "hand": 29.02, "dist_grid_m": 605.8}, "geometry": {"type": "Point", "coordinates": [-75.5570968, 6.1987268]}}, {"type": "Feature", "properties": {"kind": "Farmacia", "name": "Botica Jun\u00edn", "hand": 4.12, "dist_grid_m": 1759.1}, "geometry": {"type": "Point", "coordinates": [-75.5970436, 6.2143036]}}, {"type": "Feature", "properties": {"kind": "Escuela", "name": "La Inmaculada Colegio Femenino", "hand": 4.12, "dist_grid_m": 1872.6}, "geometry": {"type": "Point", "coordinates": [-75.5977692, 6.2169125]}}, {"type": "Feature", "properties": {"kind": "Farmacia", "name": "Pasteur", "hand": 0.6, "dist_grid_m": 23.2}, "geometry": {"type": "Point", "coordinates": [-75.5709459, 6.2090114]}}, {"type": "Feature", "properties": {"kind": "Farmacia", "name": "Droguer\u00eda El Poblado", "hand": 1.89, "dist_grid_m": 22.4}, "geometry": {"type": "Point", "coordinates": [-75.5705545, 6.2098991]}}, {"type": "Feature", "properties": {"kind": "Farmacia", "name": "Pasteur", "hand": 0.0, "dist_grid_m": 18.4}, "geometry": {"type": "Point", "coordinates": [-75.5760871, 6.212652]}}, {"type": "Feature", "properties": {"kind": "Escuela", "name": "", "hand": 0.0, "dist_grid_m": 16.2}, "geometry": {"type": "Point", "coordinates": [-75.5673283, 6.2075146]}}, {"type": "Feature", "properties": {"kind": "Cl\u00ednica", "name": "", "hand": 0.0, "dist_grid_m": 258.0}, "geometry": {"type": "Point", "coordinates": [-75.5763702, 6.2184873]}}, {"type": "Feature", "properties": {"kind": "Farmacia", "name": "Drogas La Economia", "hand": 2.01, "dist_grid_m": 7.7}, "geometry": {"type": "Point", "coordinates": [-75.5708252, 6.2108175]}}, {"type": "Feature", "properties": {"kind": "Farmacia", "name": "", "hand": 6.57, "dist_grid_m": 19.4}, "geometry": {"type": "Point", "coordinates": [-75.5692021, 6.2101603]}}, {"type": "Feature", "properties": {"kind": "Farmacia", "name": "Pasteur", "hand": 10.71, "dist_grid_m": 25.0}, "geometry": {"type": "Point", "coordinates": [-75.567551, 6.209374]}}, {"type": "Feature", "properties": {"kind": "Escuela", "name": "", "hand": 3.38, "dist_grid_m": 26.0}, "geometry": {"type": "Point", "coordinates": [-75.56794, 6.2104374]}}, {"type": "Feature", "properties": {"kind": "Escuela", "name": "", "hand": 0.0, "dist_grid_m": 17.6}, "geometry": {"type": "Point", "coordinates": [-75.5655965, 6.206552]}}, {"type": "Feature", "properties": {"kind": "Escuela", "name": "Red Escuela M\u00fasica de Medell\u00edn-Campoamor", "hand": 6.89, "dist_grid_m": 421.3}, "geometry": {"type": "Point", "coordinates": [-75.5849321, 6.2131195]}}, {"type": "Feature", "properties": {"kind": "Farmacia", "name": "Droguer\u00eda Alemana", "hand": 0.0, "dist_grid_m": 23.1}, "geometry": {"type": "Point", "coordinates": [-75.5675107, 6.2095749]}}, {"type": "Feature", "properties": {"kind": "Escuela", "name": "Academia De Idiomas SMART", "hand": 0.0, "dist_grid_m": 19.2}, "geometry": {"type": "Point", "coordinates": [-75.5684562, 6.2099742]}}, {"type": "Feature", "properties": {"kind": "Farmacia", "name": "Farma Fast", "hand": 6.57, "dist_grid_m": 23.2}, "geometry": {"type": "Point", "coordinates": [-75.5692294, 6.2102535]}}, {"type": "Feature", "properties": {"kind": "Farmacia", "name": "MundoFarma", "hand": 14.29, "dist_grid_m": 22.2}, "geometry": {"type": "Point", "coordinates": [-75.5735061, 6.2118927]}}, {"type": "Feature", "properties": {"kind": "Cl\u00ednica", "name": "Cl\u00ednica de Oncolog\u00eda Astorga", "hand": 0.66, "dist_grid_m": 20.8}, "geometry": {"type": "Point", "coordinates": [-75.5731943, 6.2097609]}}, {"type": "Feature", "properties": {"kind": "Farmacia", "name": "Drogeria Espicifica", "hand": 0.0, "dist_grid_m": 106.1}, "geometry": {"type": "Point", "coordinates": [-75.5717493, 6.2120866]}}, {"type": "Feature", "properties": {"kind": "Farmacia", "name": "", "hand": 0.0, "dist_grid_m": 224.9}, "geometry": {"type": "Point", "coordinates": [-75.570751, 6.2131658]}}, {"type": "Feature", "properties": {"kind": "Escuela", "name": "Centro Catalina", "hand": 7.83, "dist_grid_m": 17.1}, "geometry": {"type": "Point", "coordinates": [-75.5719956, 6.2087517]}}, {"type": "Feature", "properties": {"kind": "Farmacia", "name": "Farmacia Pasteur", "hand": 4.12, "dist_grid_m": 1968.5}, "geometry": {"type": "Point", "coordinates": [-75.5985852, 6.2172606]}}, {"type": "Feature", "properties": {"kind": "Farmacia", "name": "SantaFarm", "hand": 4.12, "dist_grid_m": 2036.2}, "geometry": {"type": "Point", "coordinates": [-75.5986396, 6.2194149]}}, {"type": "Feature", "properties": {"kind": "Farmacia", "name": "Droguer\u00eda Alemana", "hand": 4.12, "dist_grid_m": 1820.9}, "geometry": {"type": "Point", "coordinates": [-75.597544, 6.2152115]}}, {"type": "Feature", "properties": {"kind": "Polic\u00eda", "name": "", "hand": 3.84, "dist_grid_m": 23.6}, "geometry": {"type": "Point", "coordinates": [-75.5709737, 6.2102053]}}, {"type": "Feature", "properties": {"kind": "Hospital", "name": "Centro de Fracturas Cefra S.a.", "hand": 5.79, "dist_grid_m": 6.9}, "geometry": {"type": "Point", "coordinates": [-75.5763173, 6.2102283]}}, {"type": "Feature", "properties": {"kind": "Escuela", "name": "Blink Salsa", "hand": 21.55, "dist_grid_m": 120.5}, "geometry": {"type": "Point", "coordinates": [-75.5718272, 6.2135649]}}, {"type": "Feature", "properties": {"kind": "Farmacia", "name": "Ivanagro", "hand": 3.7, "dist_grid_m": 223.5}, "geometry": {"type": "Point", "coordinates": [-75.5701475, 6.2131453]}}, {"type": "Feature", "properties": {"kind": "Farmacia", "name": "Ivanagro", "hand": 19.04, "dist_grid_m": 303.6}, "geometry": {"type": "Point", "coordinates": [-75.5702348, 6.2146104]}}, {"type": "Feature", "properties": {"kind": "Cl\u00ednica", "name": "CediMed", "hand": 24.0, "dist_grid_m": 23.6}, "geometry": {"type": "Point", "coordinates": [-75.570941, 6.2068143]}}, {"type": "Feature", "properties": {"kind": "Cl\u00ednica", "name": "IQ InterQuir\u00f3fanos", "hand": 5.11, "dist_grid_m": 18.4}, "geometry": {"type": "Point", "coordinates": [-75.5701608, 6.2064259]}}, {"type": "Feature", "properties": {"kind": "Farmacia", "name": "La Rebaja Plus Minimarket Drogueria", "hand": 0.0, "dist_grid_m": 22.3}, "geometry": {"type": "Point", "coordinates": [-75.5709986, 6.2108962]}}, {"type": "Feature", "properties": {"kind": "Escuela", "name": "Elefun Spanish School", "hand": 19.3, "dist_grid_m": 22.9}, "geometry": {"type": "Point", "coordinates": [-75.5727058, 6.2133549]}}, {"type": "Feature", "properties": {"kind": "Farmacia", "name": "Full Medics", "hand": 18.48, "dist_grid_m": 8.6}, "geometry": {"type": "Point", "coordinates": [-75.5733977, 6.2136131]}}, {"type": "Feature", "properties": {"kind": "Escuela", "name": "Centro Educativo Semillas Del Futuro", "hand": 4.12, "dist_grid_m": 1435.7}, "geometry": {"type": "Point", "coordinates": [-75.5932919, 6.218227]}}, {"type": "Feature", "properties": {"kind": "Escuela", "name": "Otra sigla Preesc Poldi", "hand": 4.84, "dist_grid_m": 834.6}, "geometry": {"type": "Point", "coordinates": [-75.5884289, 6.2108077]}}, {"type": "Feature", "properties": {"kind": "Escuela", "name": "Centro Educativo Cent Educ Ventana Magica", "hand": 6.87, "dist_grid_m": 939.2}, "geometry": {"type": "Point", "coordinates": [-75.5868823, 6.2058343]}}, {"type": "Feature", "properties": {"kind": "Escuela", "name": "Otra sigla Jard Rondas Infantiles", "hand": 2.43, "dist_grid_m": 1504.8}, "geometry": {"type": "Point", "coordinates": [-75.593769, 6.2187538]}}, {"type": "Feature", "properties": {"kind": "Escuela", "name": "Guarderia La Motica", "hand": 4.12, "dist_grid_m": 2011.6}, "geometry": {"type": "Point", "coordinates": [-75.5992558, 6.2154572]}}, {"type": "Feature", "properties": {"kind": "Escuela", "name": "Guarderia Y Prees Palotin Col Los Fundadores", "hand": 4.12, "dist_grid_m": 513.0}, "geometry": {"type": "Point", "coordinates": [-75.5857191, 6.2143107]}}, {"type": "Feature", "properties": {"kind": "Escuela", "name": "Gimnasio Educ El Tesoro", "hand": 0.0, "dist_grid_m": 221.8}, "geometry": {"type": "Point", "coordinates": [-75.5651687, 6.2128206]}}, {"type": "Feature", "properties": {"kind": "Escuela", "name": "Jardin Infantil Piolin", "hand": 0.0, "dist_grid_m": 191.4}, "geometry": {"type": "Point", "coordinates": [-75.5672726, 6.2120185]}}, {"type": "Feature", "properties": {"kind": "Escuela", "name": "Otra sigla Secci\u00f3n Escuela Las Playas", "hand": 4.12, "dist_grid_m": 2026.5}, "geometry": {"type": "Point", "coordinates": [-75.5983668, 6.2199294]}}, {"type": "Feature", "properties": {"kind": "Escuela", "name": "Escuela Guillermo Echavarria Misas", "hand": 0.0, "dist_grid_m": 22.6}, "geometry": {"type": "Point", "coordinates": [-75.5714181, 6.210781]}}, {"type": "Feature", "properties": {"kind": "Farmacia", "name": "La Rebaja", "hand": 4.12, "dist_grid_m": 1975.1}, "geometry": {"type": "Point", "coordinates": [-75.5986696, 6.2171439]}}, {"type": "Feature", "properties": {"kind": "Farmacia", "name": "Pasteur", "hand": 2.43, "dist_grid_m": 766.8}, "geometry": {"type": "Point", "coordinates": [-75.5866695, 6.2184451]}}, {"type": "Feature", "properties": {"kind": "Escuela", "name": "Nueva Lengua Medellin", "hand": 0.0, "dist_grid_m": 225.9}, "geometry": {"type": "Point", "coordinates": [-75.561299, 6.2126488]}}, {"type": "Feature", "properties": {"kind": "Universidad", "name": "Colegiatura Colombiana", "hand": 3.14, "dist_grid_m": 10.4}, "geometry": {"type": "Point", "coordinates": [-75.5461222, 6.2088347]}}, {"type": "Feature", "properties": {"kind": "Jard\u00edn infantil", "name": "La Arboleda", "hand": 0.0, "dist_grid_m": 18.1}, "geometry": {"type": "Point", "coordinates": [-75.5596879, 6.2069745]}}, {"type": "Feature", "properties": {"kind": "Escuela", "name": "Jardin Infantil El Recreo De Los Ni\u00f1os", "hand": 0.0, "dist_grid_m": 686.5}, "geometry": {"type": "Point", "coordinates": [-75.5618391, 6.2168384]}}, {"type": "Feature", "properties": {"kind": "Escuela", "name": "Colegio Ntra Sra De La Providencia", "hand": 5.53, "dist_grid_m": 12.9}, "geometry": {"type": "Point", "coordinates": [-75.5490565, 6.2057444]}}, {"type": "Feature", "properties": {"kind": "Escuela", "name": "Colegio Latino", "hand": 5.12, "dist_grid_m": 351.6}, "geometry": {"type": "Point", "coordinates": [-75.5457744, 6.212386]}}, {"type": "Feature", "properties": {"kind": "Escuela", "name": "Colegio Madre Antonia Cerini", "hand": 1.05, "dist_grid_m": 15.5}, "geometry": {"type": "Point", "coordinates": [-75.5633753, 6.206892]}}, {"type": "Feature", "properties": {"kind": "Jard\u00edn infantil", "name": "Preescolar Hola Beb\u00e9", "hand": 3.06, "dist_grid_m": 92.2}, "geometry": {"type": "Point", "coordinates": [-75.559325, 6.211627]}}, {"type": "Feature", "properties": {"kind": "Escuela", "name": "Institucion Educativa Loma Hermosa", "hand": 3.59, "dist_grid_m": 18.8}, "geometry": {"type": "Point", "coordinates": [-75.5589308, 6.2073332]}}, {"type": "Feature", "properties": {"kind": "Jard\u00edn infantil", "name": "Descubriendo Maravillas", "hand": 0.0, "dist_grid_m": 167.4}, "geometry": {"type": "Point", "coordinates": [-75.5619416, 6.212004]}}, {"type": "Feature", "properties": {"kind": "Cl\u00ednica", "name": "Cl\u00ednica Oftalmol\u00f3gica de Medell\u00edn", "hand": 0.0, "dist_grid_m": 13.7}, "geometry": {"type": "Point", "coordinates": [-75.5600676, 6.2060078]}}, {"type": "Feature", "properties": {"kind": "Farmacia", "name": "Droguer\u00eda Alemana", "hand": 5.79, "dist_grid_m": 21.0}, "geometry": {"type": "Point", "coordinates": [-75.5632628, 6.2084964]}}, {"type": "Feature", "properties": {"kind": "Universidad", "name": "Universidad EAFIT", "hand": 0.0, "dist_grid_m": 667.4}, "geometry": {"type": "Point", "coordinates": [-75.578693742, 6.19970228]}}, {"type": "Feature", "properties": {"kind": "Escuela", "name": "INEM Jos\u00e9 F\u00e9lix de Restrepo", "hand": 0.0, "dist_grid_m": 22.0}, "geometry": {"type": "Point", "coordinates": [-75.5774257111111, 6.207695866666667]}}, {"type": "Feature", "properties": {"kind": "Jard\u00edn infantil", "name": "Guarderia El Arca", "hand": 30.42, "dist_grid_m": 236.0}, "geometry": {"type": "Point", "coordinates": [-75.56633047142857, 6.201966928571429]}}, {"type": "Feature", "properties": {"kind": "Escuela", "name": "Gimnasio Los Pinares", "hand": 19.25, "dist_grid_m": 1514.5}, "geometry": {"type": "Point", "coordinates": [-75.57123196111111, 6.190667016666667]}}, {"type": "Feature", "properties": {"kind": "Cl\u00ednica", "name": "Clinica Sanitas", "hand": 0.0, "dist_grid_m": 1575.6}, "geometry": {"type": "Point", "coordinates": [-75.57778807999999, 6.19079844]}}, {"type": "Feature", "properties": {"kind": "Escuela", "name": "", "hand": 19.25, "dist_grid_m": 1377.9}, "geometry": {"type": "Point", "coordinates": [-75.57121028, 6.1919376999999995]}}, {"type": "Feature", "properties": {"kind": "Escuela", "name": "Colegio Cristo Rey", "hand": 0.0, "dist_grid_m": 453.4}, "geometry": {"type": "Point", "coordinates": [-75.58163001666667, 6.20526315]}}, {"type": "Feature", "properties": {"kind": "Escuela", "name": "IE Jos\u00e9 Acevedo y Gom\u00e9z", "hand": 0.0, "dist_grid_m": 1424.7}, "geometry": {"type": "Point", "coordinates": [-75.59006246666667, 6.2025287166666665]}}, {"type": "Feature", "properties": {"kind": "Hospital", "name": "Cl\u00ednica Las Vegas", "hand": 0.0, "dist_grid_m": 209.3}, "geometry": {"type": "Point", "coordinates": [-75.57671708333334, 6.2033606500000005]}}, {"type": "Feature", "properties": {"kind": "Hospital", "name": "Quirustetic", "hand": 0.0, "dist_grid_m": 1114.0}, "geometry": {"type": "Point", "coordinates": [-75.57756405714285, 6.1949849285714285]}}, {"type": "Feature", "properties": {"kind": "Farmacia", "name": "Farmatodo", "hand": 1.7, "dist_grid_m": 615.0}, "geometry": {"type": "Point", "coordinates": [-75.5730883, 6.199271952631579]}}, {"type": "Feature", "properties": {"kind": "Cl\u00ednica", "name": "NOVA Cirug\u00eda Pl\u00e1stica", "hand": 0.0, "dist_grid_m": 942.8}, "geometry": {"type": "Point", "coordinates": [-75.57883194285715, 6.196987385714286]}}, {"type": "Feature", "properties": {"kind": "Cl\u00ednica", "name": "Torre M\u00e9dica Salud Vegas", "hand": 0.0, "dist_grid_m": 146.3}, "geometry": {"type": "Point", "coordinates": [-75.57665488571429, 6.204019671428571]}}, {"type": "Feature", "properties": {"kind": "Escuela", "name": "Colegio San Jos\u00e9 de las Vegas", "hand": 0.0, "dist_grid_m": 694.4}, "geometry": {"type": "Point", "coordinates": [-75.5769733111111, 6.198726972222222]}}, {"type": "Feature", "properties": {"kind": "Universidad", "name": "Universidad EAFIT", "hand": 0.0, "dist_grid_m": 1090.6}, "geometry": {"type": "Point", "coordinates": [-75.58027194285715, 6.1962045]}}, {"type": "Feature", "properties": {"kind": "Universidad", "name": "Universidad EAFIT", "hand": 0.0, "dist_grid_m": 1037.7}, "geometry": {"type": "Point", "coordinates": [-75.57952745714286, 6.196360171428572]}}, {"type": "Feature", "properties": {"kind": "Universidad", "name": "Universidad EAFIT", "hand": 0.0, "dist_grid_m": 1079.7}, "geometry": {"type": "Point", "coordinates": [-75.57981846, 6.196080139999999]}}, {"type": "Feature", "properties": {"kind": "Farmacia", "name": "Farmatodo", "hand": 19.25, "dist_grid_m": 263.4}, "geometry": {"type": "Point", "coordinates": [-75.56808423999999, 6.20151338]}}, {"type": "Feature", "properties": {"kind": "Escuela", "name": "", "hand": 19.25, "dist_grid_m": 1429.4}, "geometry": {"type": "Point", "coordinates": [-75.57124806363636, 6.191466336363636]}}, {"type": "Feature", "properties": {"kind": "Escuela", "name": "", "hand": 19.25, "dist_grid_m": 1416.1}, "geometry": {"type": "Point", "coordinates": [-75.5711963, 6.191576400000001]}}, {"type": "Feature", "properties": {"kind": "Escuela", "name": "", "hand": 14.95, "dist_grid_m": 1542.0}, "geometry": {"type": "Point", "coordinates": [-75.57301835, 6.1908639999999995]}}, {"type": "Feature", "properties": {"kind": "Escuela", "name": "colegio sanjose de las vegas", "hand": 0.0, "dist_grid_m": 742.5}, "geometry": {"type": "Point", "coordinates": [-75.57622268333334, 6.198159100000001]}}, {"type": "Feature", "properties": {"kind": "Hospital", "name": "Cl\u00ednica El Rosario", "hand": 29.02, "dist_grid_m": 1188.6}, "geometry": {"type": "Point", "coordinates": [-75.55726245789474, 6.1934695]}}, {"type": "Feature", "properties": {"kind": "Escuela", "name": "Marymount School - Medell\u00edn", "hand": 33.12, "dist_grid_m": 19.4}, "geometry": {"type": "Point", "coordinates": [-75.55591127931034, 6.205706262068966]}}, {"type": "Feature", "properties": {"kind": "Colegio", "name": "Colegio San Jos\u00e9 de la Salle", "hand": 0.0, "dist_grid_m": 23.5}, "geometry": {"type": "Point", "coordinates": [-75.54680137173914, 6.203216591304347]}}, {"type": "Feature", "properties": {"kind": "Escuela", "name": "", "hand": 2.34, "dist_grid_m": 1334.6}, "geometry": {"type": "Point", "coordinates": [-75.56441704, 6.19215438]}}, {"type": "Feature", "properties": {"kind": "Colegio", "name": "Polit\u00e9cnico Jaime Isaza Cadavid", "hand": 1.48, "dist_grid_m": 17.6}, "geometry": {"type": "Point", "coordinates": [-75.57724596666667, 6.211296691666667]}}, {"type": "Feature", "properties": {"kind": "Escuela", "name": "La Presentaci\u00f3n (Campo Amor)", "hand": 4.12, "dist_grid_m": 427.1}, "geometry": {"type": "Point", "coordinates": [-75.5849789, 6.2138984375]}}, {"type": "Feature", "properties": {"kind": "Bomberos", "name": "Bomberos Guayabal", "hand": 4.12, "dist_grid_m": 649.6}, "geometry": {"type": "Point", "coordinates": [-75.58683322222223, 6.215062666666666]}}, {"type": "Feature", "properties": {"kind": "Escuela", "name": "Instituci\u00f3n Educativa La Salle de Campoamor", "hand": 4.84, "dist_grid_m": 742.4}, "geometry": {"type": "Point", "coordinates": [-75.5878397, 6.21252575]}}, {"type": "Feature", "properties": {"kind": "Hospital", "name": "Santa Ana Hospital Infantil", "hand": 19.04, "dist_grid_m": 205.6}, "geometry": {"type": "Point", "coordinates": [-75.57155477142858, 6.215254878571429]}}, {"type": "Feature", "properties": {"kind": "Escuela", "name": "Colegio Palermo de San Jos\u00e9", "hand": 6.75, "dist_grid_m": 18.7}, "geometry": {"type": "Point", "coordinates": [-75.56939065454546, 6.2087705]}}, {"type": "Feature", "properties": {"kind": "Cl\u00ednica", "name": "Sofina Clinic", "hand": 3.29, "dist_grid_m": 6.5}, "geometry": {"type": "Point", "coordinates": [-75.57293755999999, 6.2107695]}}, {"type": "Feature", "properties": {"kind": "Cl\u00ednica", "name": "Edifico Medical", "hand": 2.38, "dist_grid_m": 21.7}, "geometry": {"type": "Point", "coordinates": [-75.57008856, 6.20637864]}}, {"type": "Feature", "properties": {"kind": "Cl\u00ednica", "name": "INTERMEDICA Centro de Especialistas", "hand": 5.11, "dist_grid_m": 20.4}, "geometry": {"type": "Point", "coordinates": [-75.57042452222223, 6.206238211111111]}}, {"type": "Feature", "properties": {"kind": "Cl\u00ednica", "name": "Consultorios Cl\u00ednica Medell\u00edn Torre Fundadores", "hand": 34.68, "dist_grid_m": 24.0}, "geometry": {"type": "Point", "coordinates": [-75.57099114285714, 6.206803735714286]}}, {"type": "Feature", "properties": {"kind": "Cl\u00ednica", "name": "INTERMEDICA Centro de Especialistas", "hand": 34.68, "dist_grid_m": 16.6}, "geometry": {"type": "Point", "coordinates": [-75.57113912, 6.206567300000001]}}, {"type": "Feature", "properties": {"kind": "Cl\u00ednica", "name": "Laboratorio Cl\u00ednico Hematol\u00f3gico", "hand": 4.49, "dist_grid_m": 24.4}, "geometry": {"type": "Point", "coordinates": [-75.57316796, 6.2065233200000005]}}, {"type": "Feature", "properties": {"kind": "Cl\u00ednica", "name": "Umma Especialistas", "hand": 0.0, "dist_grid_m": 16.6}, "geometry": {"type": "Point", "coordinates": [-75.5747728, 6.2088524199999995]}}, {"type": "Feature", "properties": {"kind": "Cl\u00ednica", "name": "Torre M\u00e9dica Las Am\u00e9ricas", "hand": 4.12, "dist_grid_m": 1622.2}, "geometry": {"type": "Point", "coordinates": [-75.59581276, 6.21395264]}}, {"type": "Feature", "properties": {"kind": "Colegio", "name": "Instituci\u00f3n Educativa Juan Mar\u00eda C\u00e9spedes", "hand": 4.12, "dist_grid_m": 1830.2}, "geometry": {"type": "Point", "coordinates": [-75.59667781666667, 6.219372216666667]}}, {"type": "Feature", "properties": {"kind": "Jard\u00edn infantil", "name": "", "hand": 4.12, "dist_grid_m": 1506.2}, "geometry": {"type": "Point", "coordinates": [-75.59415272, 6.2176896]}}, {"type": "Feature", "properties": {"kind": "Cl\u00ednica", "name": "inSer", "hand": 14.74, "dist_grid_m": 307.5}, "geometry": {"type": "Point", "coordinates": [-75.56720314545454, 6.213222045454546]}}, {"type": "Feature", "properties": {"kind": "Cl\u00ednica", "name": "Cl\u00ednica Las Am\u00e9ricas Promotora", "hand": 4.12, "dist_grid_m": 1510.8}, "geometry": {"type": "Point", "coordinates": [-75.59480537272727, 6.213866863636364]}}, {"type": "Feature", "properties": {"kind": "Cl\u00ednica", "name": "Cl\u00ednica Aurora", "hand": 0.0, "dist_grid_m": 20.4}, "geometry": {"type": "Point", "coordinates": [-75.5751688, 6.20940094]}}, {"type": "Feature", "properties": {"kind": "Cl\u00ednica", "name": "Cl\u00ednica Aurora Sede 2", "hand": 0.0, "dist_grid_m": 15.9}, "geometry": {"type": "Point", "coordinates": [-75.57509744000001, 6.20909958]}}, {"type": "Feature", "properties": {"kind": "Hospital", "name": "", "hand": 0.0, "dist_grid_m": 19.7}, "geometry": {"type": "Point", "coordinates": [-75.57565946, 6.21565702]}}, {"type": "Feature", "properties": {"kind": "Colegio", "name": "Seminario", "hand": 5.12, "dist_grid_m": 235.2}, "geometry": {"type": "Point", "coordinates": [-75.54595289230768, 6.211350076923077]}}, {"type": "Feature", "properties": {"kind": "Cl\u00ednica", "name": "Balance", "hand": 0.0, "dist_grid_m": 97.2}, "geometry": {"type": "Point", "coordinates": [-75.55988464285714, 6.211694799999999]}}]}